[
  {
    "id": 706483,
    "name": "Kharkiv",
    "trname": "Харьков",
    "country": "UA",
    "coord": {
      "lon": 36.25,
      "lat": 50
    }
  },
  {
      "id": 695464,
      "name": "Romny",
      "trname": "Ромны",
      "country": "UA",
      "coord": {
        "lon": 33.474709,
        "lat": 50.751041
      }
  },
  {
      "id": 709611,
      "name": "Drogobych",
      "trname": "Дрогобич",
      "country": "UA",
      "coord": {
        "lon": 23.50561,
        "lat": 49.349911
      }
  },
  {
      "id": 692194,
      "name": "Sumy",
      "trname": "Сумы",
      "country": "UA",
      "coord": {
        "lon": 34.800289,
        "lat": 50.9216
      }
  },
  {
      "id": 702550,
      "name": "Lviv",
      "trname": "Львов",
      "country": "UA",
      "coord": {
        "lon": 24.023239,
        "lat": 49.838261
      }
  },
  {
      "id": 689558,
      "name": "Vinnytsya",
      "trname": "Винница",
      "country": "UA",
      "coord": {
        "lon": 28.48097,
        "lat": 49.23278
      }
    },
  {
      "id": 703845,
      "name": "Kryvyy Rih",
      "trname": "Кривой Рог",
      "country": "UA",
      "coord": {
        "lon": 33.349998,
        "lat": 47.916668
      }
    },
  {
      "id": 691650,
      "name": "Ternopil",
      "trname": "Тернополь",
      "country": "UA",
      "coord": {
        "lon": 25.60556,
        "lat": 49.555889
      }
  },

  {
      "id": 696643,
      "name": "Poltava",
      "trname": "Полтава",
      "country": "UA",
      "coord": {
        "lon": 34.54073,
        "lat": 49.593731
      }
    },
  {
      "id": 701824,
      "name": "Mariupol",
      "trname": "Мариуполь",
      "country": "UA",
      "coord": {
        "lon": 37.533089,
        "lat": 47.105701
      }
  },
  {
      "id": 709930,
      "name": "Dnipropetrovsk",
      "trname": "Днепр",
      "country": "UA",
      "coord": {
        "lon": 34.98333,
        "lat": 48.450001
      }
    },
  {
      "id": 695594,
      "name": "Rivne",
      "trname": "Ровно",
      "country": "UA",
      "coord": {
        "lon": 26.22743,
        "lat": 50.623081
      }
    },
  {
      "id": 690548,
      "name": "Uzhhorod",
      "trname": "Ужгород",
      "country": "UA",
      "coord": {
        "lon": 22.299999,
        "lat": 48.616669
      }
  },
  {
      "id": 686967,
      "name": "Zhytomyr",
      "trname": "Житомир",
      "country": "UA",
      "coord": {
        "lon": 28.676689,
        "lat": 50.26487
      }
    },
  {
      "id": 687700,
      "name": "Zaporizhzhya",
      "trname": "Запорожье",
      "country": "UA",
      "coord": {
        "lon": 35.183331,
        "lat": 47.816669
      }
    },
  {
      "id": 707471,
      "name": "Ivano-Frankivsk",
      "trname": "Ивано-Франковск",
      "country": "UA",
      "coord": {
        "lon": 24.709721,
        "lat": 48.921501
      }
  },
  {
      "id": 691650,
      "name": "Ternopil",
      "trname": "Тернополь",
      "country": "UA",
      "coord": {
        "lon": 25.60556,
        "lat": 49.555889
      }
  },

  {
      "id": 705812,
      "name": "Kirovohrad",
      "trname": "Кропивницкий",
      "country": "UA",
      "coord": {
        "lon": 32.259701,
        "lat": 48.513199
      }
  },
  {
      "id": 710719,
      "name": "Chernivtsi",
      "trname": "Черновцы",
      "country": "UA",
      "coord": {
        "lon": 25.94034,
        "lat": 48.291489
      }
  },

  {
      "id": 703448,
      "name": "Kiev",
      "trname": "Киев",
      "country": "UA",
      "coord": {
        "lon": 30.516666,
        "lat": 50.433334
      }
  },
  {
        "id": 698740,
        "name": "Odessa",
        "trname": "Одесса",
        "country": "UA",
        "coord": {
          "lon": 30.732622,
          "lat": 46.477474
        }
  },
  {
      "id": 702569,
      "name": "Lutsk",
      "trname": "Луцк",
      "country": "UA",
      "coord": {
        "lon": 25.34244,
        "lat": 50.759319
      }
  },
  {
      "id": 710791,
      "name": "Cherkasy",
      "trname": "Черкасы",
      "country": "UA",
      "coord": {
        "lon": 32.062069,
        "lat": 49.428539
      }
  },
  {
      "id": 712165,
      "name": "Bila Tserkva",
      "trname": "Белая Церковь",
      "country": "UA",
      "coord": {
        "lon": 30.112089,
        "lat": 49.809391
      }
    },
  {
      "id": 706448,
      "name": "Kherson",
      "trname": "Херсон",
      "country": "UA",
      "coord": {
        "lon": 32.617802,
        "lat": 46.655811
      }
    },
  {
      "id": 702658,
      "name": "Luhansk",
      "trname": "Луганск",
      "country": "UA",
      "coord": {
        "lon": 39.317059,
        "lat": 48.567051
      }
    },
  {
      "id": 700569,
      "name": "Mykolayiv",
      "trname": "Николаев",
      "country": "UA",
      "coord": {
        "lon": 31.9974,
        "lat": 46.965912
      }
    },
  {
      "id": 704147,
      "name": "Kremenchuk",
      "trname": "Кременчук",
      "country": "UA",
      "coord": {
        "lon": 33.41972,
        "lat": 49.097252
      }
    },
    {
      "id": 704508,
      "name": "Kramatorsk",
      "trname": "Краматорск",
      "country": "UA",
      "coord": {
        "lon": 37.55629,
        "lat": 48.723049
      }
    },
  {
      "id": 707688,
      "name": "Illichivsk",
      "trname": "Илличевск",
      "country": "UA",
      "coord": {
        "lon": 30.654779,
        "lat": 46.304951
      }
    },

  {
      "id": 706369,
      "name": "Khmelnytskyy",
      "trname": "Хмельницкий",
      "country": "UA",
      "coord": {
        "lon": 26.996531,
        "lat": 49.421612
      }
  },
  {
        "id": 710735,
        "name": "Chernihiv",
        "trname": "Чернигов",
        "country": "UA",
        "coord": {
          "lon": 31.28488,
          "lat": 51.505508
        }
      },

        {
            "id": 709717,
            "name": "Donetsk",
            "trname": "Донецк",
            "country": "UA",
            "coord": {
              "lon": 37.799999,
              "lat": 48
            }
          }




]
